 {
   "Name": "101 Fish and Chips",
   "Address": "36700 Cedar Blvd",
   "Address_complete": "36700 Cedar Blvd Fremont, CA",
   "Phone": "(510) 792-7272",
   "Description": "",
   "Website": "www.101fishnchips.com/",
   "Cater": "",
   "Google*": "",
   "Hours": "",
   "Category": "American",
   "Limited or Full Service": ""
 }
 {
   "Name": "Bear BiteZ",
   "Address": "5486 Central Ave",
   "Address_complete": "5486 Central Ave Fremont, CA",
   "Phone": "COMING SOON!",
   "Description": "Bear Bitez was created out of love for the burger, and a desperate need to make burger exciting again",
   "Website": "",
   "Cater": "",
   "Google*": "",
   "Hours": "",
   "Category": "American",
   "Limited or Full Service": "Full Service Restaurant"
 }
 {
   "Name": "Bistro 880 at DoubleTree Hotel",
   "Address": "39900 Balentine Dr,",
   "Address_complete": "39900 Balentine Dr, Fremont, CA",
   "Phone": "(510) 413-2300",
   "Description": "This venue has been conceptualized to transform one’s mind, body, and soul. Every taste, sound, and sight will engage the senses and satisfy appetites. Bistro 880 is not another routine restaurant, it’s a complete sensory experience.",
   "Website": "bistro880.com/",
   "Cater": "",
   "Google*": "3.3",
   "Hours": "Vary",
   "Category": "American",
   "Limited or Full Service": ""
 }
 {
   "Name": "BJ's Restaurant & Brewhouse ",
   "Address": "5699 Mowry Ave",
   "Address_complete": "5699 Mowry Ave Fremont, CA",
   "Phone": "(510) 456-3750",
   "Description": "Traditional food with extensive beer menu",
   "Website": "bjsrestaurants.com/locations/ca/newark",
   "Cater": "",
   "Google*": "4",
   "Hours": "11a-12a; 10a-12a Sun",
   "Category": "American",
   "Limited or Full Service": "Full Service Restaurant"
 }
 {
   "Name": "Dino's Grill",
   "Address": "5855 Jarvis Ave #A",
   "Address_complete": "5855 Jarvis Ave #A Fremont, CA",
   "Phone": "5104941203",
   "Description": "European take on classic American Diner",
   "Website": "m.facebook.com/Dinos-Grill-340920956466/",
   "Cater": "",
   "Google*": "4.6",
   "Hours": "11a-8p M-W; 11a-8:30 Th-Sa; closed Sunday",
   "Category": "American",
   "Limited or Full Service": "Full-Service Restaurants "
 }
 {
   "Name": "I H O P",
   "Address": "5687 Jarvis Ave",
   "Address_complete": "5687 Jarvis Ave Fremont, CA",
   "Phone": "5107945687",
   "Description": "American Breakfast & Dinner Fare",
   "Website": "restaurants.ihop.com",
   "Cater": "",
   "Google*": "4.2",
   "Hours": "6:30a-10p Su-Th; 6:30-11 F-Sa",
   "Category": "American",
   "Limited or Full Service": "Full Service Restaurant"
 }
 {
   "Name": "Jack's Restaurant & Bar ",
   "Address": "1029 Newpark Mall",
   "Address_complete": "1029 Newpark Mall Fremont, CA",
   "Phone": "6502421661",
   "Description": "Large Dining room for American Cuisine with Greek influences ",
   "Website": "ilovejacks.com",
   "Cater": "C",
   "Google*": "4.2",
   "Hours": "8am-10pm Su-Th; 8am-11pm F & Sa",
   "Category": "American",
   "Limited or Full Service": "Full-Service Restaurants "
 }
 {
   "Name": "Lazy Dog",
   "Address": "3100 Newpark Mall",
   "Address_complete": "3100 Newpark Mall Fremont, CA",
   "Phone": "COMING SOON!",
   "Description": "Contemporary American",
   "Website": "www.lazydogrestaurants.com",
   "Cater": "",
   "Google*": "",
   "Hours": "",
   "Category": "American",
   "Limited or Full Service": "Full Service Restaurants"
 }
 {
   "Name": "Mr Pickles",
   "Address": "5849 Jarvis Ave",
   "Address_complete": "5849 Jarvis Ave Fremont, CA",
   "Phone": "5106084775",
   "Description": "Full Service Sandwich shop, Soup & Salad",
   "Website": "www.mrpickles.com",
   "Cater": "C",
   "Google*": "n/a",
   "Hours": "10a-7:30 M-F; 10a-7 Sa & Su",
   "Category": "American",
   "Limited or Full Service": "Limited-Service Restaurants "
 }
 {
   "Name": "My Cafe",
   "Address": "5475 Thornton Ave",
   "Address_complete": "5475 Thornton Ave Fremont, CA",
   "Phone": "5107962333",
   "Description": "",
   "Website": "www.mycafedelivery.com",
   "Cater": "",
   "Google*": "4.3",
   "Hours": "7am-9pm",
   "Category": "American",
   "Limited or Full Service": "Full-Service Restaurants "
 }
 {
   "Name": "Ray's Crab Shack",
   "Address": "5989 Mowry Ave",
   "Address_complete": "5989 Mowry Ave Fremont, CA",
   "Phone": " (510) 792-8808",
   "Description": "You get to taste all the live crab and lobster with different flavors we have to offer, from Original Cajun all the way to Ultimate Power",
   "Website": "www.rayscrabshack.com/",
   "Cater": "",
   "Google*": "",
   "Hours": "",
   "Category": "American",
   "Limited or Full Service": ""
 }
 {
   "Name": "S & J Coffee Shop",
   "Address": "5409 Central Ave",
   "Address_complete": "5409 Central Ave Fremont, CA",
   "Phone": "5107931155",
   "Description": "Coffee Shop, Breakfast & Lunch",
   "Website": "",
   "Cater": "",
   "Google*": "4.4",
   "Hours": "7 am - 2pm",
   "Category": "American",
   "Limited or Full Service": "Full Service Restaurants"
 }
 {
   "Name": "Wake Up America BL",
   "Address": "3900 Newpark Mall Road #102",
   "Address_complete": "3900 Newpark Mall Road #102 Fremont, CA",
   "Phone": "(510) 505-9904",
   "Description": "Traditional Breakfast & Lunch",
   "Website": "www.wakeupamericarestaurant.com/menu.html",
   "Cater": "",
   "Google*": "4.3",
   "Hours": "7a-2p M-F; &a-3P Sa & Su",
   "Category": "",
   "Limited or Full Service": "Full Service Restaurants"
 }
 {
   "Name": "85° Bakery Café",
   "Address": "35201 Newark Blvd Suite V",
   "Address_complete": "35201 Newark Blvd Suite V Fremont, CA",
   "Phone": "5107968585",
   "Description": "Chinese Desserts, Cakes, Savory Pastries, Coffee & Tea-open bld",
   "Website": "85cbakerycafe.com",
   "Cater": "C",
   "Google*": "4.2",
   "Hours": "7am-10pm",
   "Category": "Bakery",
   "Limited or Full Service": ""
 }
 {
   "Name": "Bakery-Taqueria Uno",
   "Address": "36601 Newark Blvd #17",
   "Address_complete": "36601 Newark Blvd #17 Fremont, CA",
   "Phone": "5104940101",
   "Description": "Mexican Pan & Pastries w tacos-open ld",
   "Website": "",
   "Cater": "",
   "Google*": "4.5",
   "Hours": "6:30am-6pm",
   "Category": "Bakery",
   "Limited or Full Service": ""
 }
 {
   "Name": "Beard Papa                                           ",
   "Address": "1133 Newpark Mall #1135",
   "Address_complete": "1133 Newpark Mall #1135 Fremont, CA",
   "Phone": "4088284229",
   "Description": "Fresh & Natural Cream Puffs-open ld",
   "Website": "www.beardpapa.com/",
   "Cater": "",
   "Google*": "4.6",
   "Hours": "10am-9pm",
   "Category": "Bakery",
   "Limited or Full Service": ""
 }
 {
   "Name": "Delicious Donuts & Bagels",
   "Address": "34916 Newark Blvd",
   "Address_complete": "34916 Newark Blvd Fremont, CA",
   "Phone": "5107957793",
   "Description": "Donuts, Bagels, Sandwiches, WiFi-open bl",
   "Website": "",
   "Cater": "",
   "Google*": "4.6",
   "Hours": "5 or 5;30am-2pm",
   "Category": "Bakery",
   "Limited or Full Service": ""
 }
 {
   "Name": "Innlay Bakery",
   "Address": "5566 Thornton Av",
   "Address_complete": "5566 Thornton Av Fremont, CA",
   "Phone": "5107927078",
   "Description": "Cakes, Cookies & Breads-open ld",
   "Website": "",
   "Cater": "",
   "Google*": "4.5",
   "Hours": "8am-10pm except Sunday",
   "Category": "Bakery",
   "Limited or Full Service": ""
 }
 {
   "Name": "La Farfalla",
   "Address": "39055 Cedar Blvd #182",
   "Address_complete": "39055 Cedar Blvd #182 Fremont, CA",
   "Phone": "5105984189",
   "Description": "Chinese / International Desserts, Cakes, Cupcakes, Cookies-open bld",
   "Website": "www.lfbakery.com",
   "Cater": "",
   "Google*": "3.7",
   "Hours": "",
   "Category": "Bakery",
   "Limited or Full Service": ""
 }
 {
   "Name": "Starbread Bakery",
   "Address": "5855-D Jarvis Ave",
   "Address_complete": "5855-D Jarvis Ave Fremont, CA",
   "Phone": "5106084777",
   "Description": "Filipino bakery offers famous senorita bread & more-open bl",
   "Website": "starbreadca.com",
   "Cater": "",
   "Google*": "4.7",
   "Hours": "7am-7pm",
   "Category": "Bakery",
   "Limited or Full Service": ""
 }
 {
   "Name": "Ace King Music Restaurant ",
   "Address": "6062 Mowry Ave",
   "Address_complete": "6062 Mowry Ave Fremont, CA",
   "Phone": "5103234987",
   "Description": "Modern Interpretation of Classic Dishes; wide grilled skewer selection",
   "Website": "www.acekingmusicnewark.com/",
   "Cater": "",
   "Google*": "",
   "Hours": "",
   "Category": "Chinese",
   "Limited or Full Service": ""
 }
 {
   "Name": "Asia Express ",
   "Address": "5672 Thornton Ave",
   "Address_complete": "5672 Thornton Ave Fremont, CA",
   "Phone": "5107428818",
   "Description": "Family Restaurant & Take Out",
   "Website": "",
   "Cater": "Y",
   "Google*": "2.9",
   "Hours": "10:30 - 8:30 or 9:00",
   "Category": "Chinese",
   "Limited or Full Service": ""
 }
 {
   "Name": "Bow1",
   "Address": "35201 Newark Blvd Suite B",
   "Address_complete": "35201 Newark Blvd Suite B Fremont, CA",
   "Phone": "5105651045",
   "Description": "Mala, ChongQing Region",
   "Website": "",
   "Cater": "",
   "Google*": "",
   "Hours": "11:30a-2:30; 5-10",
   "Category": "Chinese",
   "Limited or Full Service": ""
 }
 {
   "Name": "Chan's Kitchen ",
   "Address": "6180 Jarvis Ave #C",
   "Address_complete": "6180 Jarvis Ave #C Fremont, CA",
   "Phone": "5107425688",
   "Description": "Taiwanese",
   "Website": "",
   "Cater": "",
   "Google*": "4.2",
   "Hours": "11 - 3, 4 - 9pm",
   "Category": "Chinese",
   "Limited or Full Service": ""
 }
 {
   "Name": "Chef Wu Restaurant",
   "Address": "36926 Sycamore St",
   "Address_complete": "36926 Sycamore St Fremont, CA",
   "Phone": "5107138688",
   "Description": "Taiwanese, fresh Youtiao & Soy Milk daily",
   "Website": "www.chefwuchineserestaurant.com/",
   "Cater": "",
   "Google*": "4.2",
   "Hours": "10 am - 3 pm",
   "Category": "Chinese",
   "Limited or Full Service": ""
 }
 {
   "Name": "Chinese Gourmet Express",
   "Address": "2086 Newpark Mall #2080",
   "Address_complete": "2086 Newpark Mall #2080 Fremont, CA",
   "Phone": "(800) 719-9329",
   "Description": "",
   "Website": "www.chinese-gourmet-express.com/frontend/default.asp",
   "Cater": "C",
   "Google*": "1.5",
   "Hours": "10am - 9 pm",
   "Category": "Chinese",
   "Limited or Full Service": ""
 }
 {
   "Name": "Cloudland Rice Noodle",
   "Address": "39185 Cedar Blvd",
   "Address_complete": "39185 Cedar Blvd Fremont, CA",
   "Phone": "(650) 565-4337",
   "Description": "Yun Nan, SW China",
   "Website": "cloudland-rice-noodle.business.site/",
   "Cater": "",
   "Google*": "4.2",
   "Hours": "11 or 11:30 - 2:30 or 3; 5 - 9 or 9:30",
   "Category": "Chinese",
   "Limited or Full Service": ""
 }
 {
   "Name": "Cousin Café                                                     ",
   "Address": "39193 Cedar Blvd",
   "Address_complete": "39193 Cedar Blvd Fremont, CA",
   "Phone": "5107139806",
   "Description": "Hong King style",
   "Website": "www.cousincafe.com",
   "Cater": "",
   "Google*": "",
   "Hours": "8 am - 10 or 11pm",
   "Category": "Chinese",
   "Limited or Full Service": ""
 }
 {
   "Name": "Fairwood Café ",
   "Address": "35204 Newark Blvd",
   "Address_complete": "35204 Newark Blvd Fremont, CA",
   "Phone": "5107938838",
   "Description": "Hong Kong style",
   "Website": "",
   "Cater": "C",
   "Google*": "4.2",
   "Hours": "8 am - 1 am",
   "Category": "Chinese",
   "Limited or Full Service": ""
 }
 {
   "Name": "Good Fortune Restaurant",
   "Address": "39135 Cedar Blvd",
   "Address_complete": "39135 Cedar Blvd Fremont, CA",
   "Phone": "(510) 894-0742",
   "Description": "Homemade w Sechuan Influences",
   "Website": "",
   "Cater": "",
   "Google*": "4.8",
   "Hours": "11 am - 9 pm",
   "Category": "Chinese",
   "Limited or Full Service": ""
 }
 {
   "Name": "Good Neighbor Restaurant",
   "Address": "35122 Newark Blvd",
   "Address_complete": "35122 Newark Blvd Fremont, CA",
   "Phone": "5107973328",
   "Description": "Large Cantoniese Menu",
   "Website": "",
   "Cater": "",
   "Google*": "3.9",
   "Hours": "",
   "Category": "Chinese",
   "Limited or Full Service": ""
 }
 {
   "Name": "Happy Kitchen ",
   "Address": "39055 Cedar Blvd Ste #108",
   "Address_complete": "39055 Cedar Blvd Ste #108 Fremont, CA",
   "Phone": "5108181392",
   "Description": "North Eastern China & Cantonese",
   "Website": "",
   "Cater": "",
   "Google*": "",
   "Hours": "",
   "Category": "Chinese",
   "Limited or Full Service": ""
 }
 {
   "Name": "Huong Lan Sandwiches & Noodle Soup",
   "Address": "39055 Cedar Blvd, Suite 116",
   "Address_complete": "39055 Cedar Blvd, Suite 116 Fremont, CA",
   "Phone": "(510) 792-8999",
   "Description": "Pho, Spring Rolls,  Plates & Teas",
   "Website": "www.hlsandwiches.com",
   "Cater": "",
   "Google*": "3.9",
   "Hours": "7am - 9 pm",
   "Category": "Chinese",
   "Limited or Full Service": ""
 }
 {
   "Name": "Jade Palace ",
   "Address": "36601 Newark Bl",
   "Address_complete": "36601 Newark Bl Fremont, CA",
   "Phone": "5107925456",
   "Description": "Family-owned eatery featuring a variety of standard Chinese entrees",
   "Website": "",
   "Cater": "",
   "Google*": "",
   "Hours": "",
   "Category": "Chinese",
   "Limited or Full Service": ""
 }
 {
   "Name": "King Of Dumplings",
   "Address": "39229 Cedar",
   "Address_complete": "39229 Cedar Fremont, CA",
   "Phone": "5107132800",
   "Description": "Dumplings, Dim Sum, Hand Pulled Noodles",
   "Website": "kingofdumplingsnewark.com",
   "Cater": "",
   "Google*": "",
   "Hours": "",
   "Category": "Chinese",
   "Limited or Full Service": ""
 }
 {
   "Name": "Lavender Hot Pot",
   "Address": "5605 Mowry School Road",
   "Address_complete": "5605 Mowry School Road Fremont, CA",
   "Phone": "(510) 335-3333",
   "Description": "Comfort Food Hot Pot",
   "Website": "lavender-hot-pot.business.site/",
   "Cater": "",
   "Google*": "3.8",
   "Hours": "",
   "Category": "Chinese",
   "Limited or Full Service": ""
 }
 {
   "Name": "Little Sichuan Restaurant",
   "Address": "35233 Newark Blvd Suite F",
   "Address_complete": "35233 Newark Blvd Suite F Fremont, CA",
   "Phone": "5107428777",
   "Description": "Sichuan",
   "Website": "",
   "Cater": "C",
   "Google*": "3.6",
   "Hours": "",
   "Category": "Chinese",
   "Limited or Full Service": ""
 }
 {
   "Name": "New Hwong Kok",
   "Address": "39055 Cedar Blvd #186",
   "Address_complete": "39055 Cedar Blvd #186 Fremont, CA",
   "Phone": "5107459182",
   "Description": "BBQ Pork & Duck, Dim Sum",
   "Website": "",
   "Cater": "",
   "Google*": "",
   "Hours": "",
   "Category": "Chinese",
   "Limited or Full Service": ""
 }
 {
   "Name": "New King Eggroll ",
   "Address": "7372 Thornton Ave",
   "Address_complete": "7372 Thornton Ave Fremont, CA",
   "Phone": "5104948003",
   "Description": "Egg rolls, Chinese buffet table",
   "Website": "newkingeggroll.com/",
   "Cater": "",
   "Google*": "4.3",
   "Hours": "",
   "Category": "Chinese",
   "Limited or Full Service": ""
 }
 {
   "Name": "New Ocean Restaurant ",
   "Address": "7179 Thornton Ave",
   "Address_complete": "7179 Thornton Ave Fremont, CA",
   "Phone": "5107959798",
   "Description": "",
   "Website": "www.newoceanchinesefood.net/",
   "Cater": "C",
   "Google*": "4.1",
   "Hours": "",
   "Category": "Chinese",
   "Limited or Full Service": ""
 }
 {
   "Name": "New Tung Kee Noodle",
   "Address": "39029 Cedar Blvd",
   "Address_complete": "39029 Cedar Blvd Fremont, CA",
   "Phone": "(510) 713-8883",
   "Description": "Chinese Cuisine; Vegetarian specialties",
   "Website": "www.newarkchinesefood.com/",
   "Cater": "",
   "Google*": "3.8",
   "Hours": "10a - 9p",
   "Category": "Chinese",
   "Limited or Full Service": ""
 }
 {
   "Name": "Newark Buffet",
   "Address": "35201 Newark Blvd",
   "Address_complete": "35201 Newark Blvd Fremont, CA",
   "Phone": "(510) 818-1136",
   "Description": "",
   "Website": "newarkbuffet.com",
   "Cater": "",
   "Google*": "4",
   "Hours": "11 am - 9 pm",
   "Category": "Chinese",
   "Limited or Full Service": ""
 }
 {
   "Name": "Newark Cafe",
   "Address": "35201 Newark Blvd Ste F",
   "Address_complete": "35201 Newark Blvd Ste F Fremont, CA",
   "Phone": "(510) 713-0128",
   "Description": "Szechuan, Noodles, Hot Pot ",
   "Website": "www.newarkcafeca.com/",
   "Cater": "C",
   "Google*": "3.6",
   "Hours": "11am-3pm, 5-10pm",
   "Category": "Chinese",
   "Limited or Full Service": ""
 }
 {
   "Name": "Ok Noodle House LD",
   "Address": "5492 Central Ave",
   "Address_complete": "5492 Central Ave Fremont, CA",
   "Phone": "5108189928",
   "Description": "Hand-pulled noodles",
   "Website": "www.ok-noodle-newark.com/",
   "Cater": "",
   "Google*": "4.4",
   "Hours": "",
   "Category": "Chinese",
   "Limited or Full Service": ""
 }
 {
   "Name": "Peach Garden ",
   "Address": "5862 Mowry School Rd",
   "Address_complete": "5862 Mowry School Rd Fremont, CA",
   "Phone": "5107707777",
   "Description": "Standard Chinese dishes & Sichuan specialties ",
   "Website": "",
   "Cater": "",
   "Google*": "4.1",
   "Hours": "",
   "Category": "Chinese",
   "Limited or Full Service": ""
 }
 {
   "Name": "Roseming Café",
   "Address": "39055 Cedar Blvd #166",
   "Address_complete": "39055 Cedar Blvd #166 Fremont, CA",
   "Phone": "5107139188",
   "Description": "Hong Kong Style ",
   "Website": "",
   "Cater": "",
   "Google*": "4.4",
   "Hours": "",
   "Category": "Chinese",
   "Limited or Full Service": ""
 }
 {
   "Name": "Saigon Seafood Harbor Restaurant Inc",
   "Address": "35219-A Newark Blvd",
   "Address_complete": "35219-A Newark Blvd Fremont, CA",
   "Phone": "5107931388",
   "Description": "Large Cantonese Seafood & Dim Sum Menu",
   "Website": "saigonharbors.com/",
   "Cater": "",
   "Google*": "3.8",
   "Hours": "10a or 11a - 3p, 5-10p",
   "Category": "Chinese",
   "Limited or Full Service": ""
 }
 {
   "Name": "Shanghai Bistro",
   "Address": "39169 Cedar Blvd,",
   "Address_complete": "39169 Cedar Blvd, Fremont, CA",
   "Phone": "(510) 795-2799",
   "Description": "Shangainese specialties: Pan Fried Pork Bun, Potstickers, Steamed Soup Dumplings",
   "Website": "",
   "Cater": "",
   "Google*": "4.4",
   "Hours": "",
   "Category": "Chinese",
   "Limited or Full Service": ""
 }
 {
   "Name": "Tasty Pot",
   "Address": "34909 Newark Blvd",
   "Address_complete": "34909 Newark Blvd Fremont, CA",
   "Phone": "5107978889",
   "Description": "Taiwanese Hot Pot",
   "Website": "www.tastypotusa.com",
   "Cater": "",
   "Google*": "4.3",
   "Hours": "",
   "Category": "Chinese",
   "Limited or Full Service": ""
 }
 {
   "Name": "Tasty Restaurant ",
   "Address": "5576 Newpark Mall Rd",
   "Address_complete": "5576 Newpark Mall Rd Fremont, CA",
   "Phone": "5105059981",
   "Description": "Chinese Cuisine Standards",
   "Website": "www.tastychinesenewark.com/",
   "Cater": "",
   "Google*": "4.3",
   "Hours": "",
   "Category": "Chinese",
   "Limited or Full Service": ""
 }
 {
   "Name": "Tea Station",
   "Address": "39115 Cedar Blvd",
   "Address_complete": "39115 Cedar Blvd Fremont, CA",
   "Phone": "(510) 713-9588",
   "Description": "Huge Milk Tea Menu, Taiwanese Food ",
   "Website": "www.teastation.us",
   "Cater": "",
   "Google*": "",
   "Hours": "",
   "Category": "Chinese",
   "Limited or Full Service": ""
 }
 {
   "Name": "The Three Sheep                                    ",
   "Address": "35201 Newark Blvd #F",
   "Address_complete": "35201 Newark Blvd #F Fremont, CA",
   "Phone": "5105651388",
   "Description": "Dim Sum & Casserole",
   "Website": "www.threesheepnewark.com",
   "Cater": "",
   "Google*": "",
   "Hours": "",
   "Category": "Chinese",
   "Limited or Full Service": ""
 }
 {
   "Name": "TLT BBQ",
   "Address": "39257 Cedar Blvd",
   "Address_complete": "39257 Cedar Blvd Fremont, CA",
   "Phone": "5104941008",
   "Description": "BBQ & Skewers",
   "Website": "",
   "Cater": "",
   "Google*": "3",
   "Hours": "",
   "Category": "Chinese",
   "Limited or Full Service": ""
 }
 {
   "Name": "Venus Cafe",
   "Address": "6267 Jarvis Ave",
   "Address_complete": "6267 Jarvis Ave Fremont, CA",
   "Phone": "5107441188",
   "Description": "Hong Kong Style Café",
   "Website": "www.venuscafe-usa.com/",
   "Cater": "C",
   "Google*": "3.9",
   "Hours": "",
   "Category": "Chinese",
   "Limited or Full Service": ""
 }
 {
   "Name": "Xi' An Taste",
   "Address": "39119 Cedar Blvd",
   "Address_complete": "39119 Cedar Blvd Fremont, CA",
   "Phone": "(510) 608-6098",
   "Description": "Xi' An (hand-ripped) Noodles",
   "Website": "",
   "Cater": "",
   "Google*": "",
   "Hours": "",
   "Category": "Chinese",
   "Limited or Full Service": ""
 }
 {
   "Name": "Caface",
   "Address": "6180 Jarvis Ave Ste W",
   "Address_complete": "6180 Jarvis Ave Ste W Fremont, CA",
   "Phone": "(510) 648-2415",
   "Description": "Coffee ",
   "Website": "caface-usa.business.site/",
   "Cater": "",
   "Google*": "4",
   "Hours": "11:30am-9pm Su, M, W & Th; 11:30-10pm F, Sat",
   "Category": "Coffee & Bubble Tea",
   "Limited or Full Service": ""
 }
 {
   "Name": "Gong Cha",
   "Address": "39730 Cedar Blvd",
   "Address_complete": "39730 Cedar Blvd Fremont, CA",
   "Phone": "5105732846",
   "Description": "Taiwan-style Boba Tea Started in Kaohsiung, ",
   "Website": "gong-cha-usa.com/",
   "Cater": "",
   "Google*": "",
   "Hours": "",
   "Category": "Coffee & Bubble Tea",
   "Limited or Full Service": ""
 }
 {
   "Name": "Happy Lemon",
   "Address": "39151 Cedar Blvd",
   "Address_complete": "39151 Cedar Blvd Fremont, CA",
   "Phone": "COMING SOON!",
   "Description": "Lemonade & More",
   "Website": "www.happy-lemon.com",
   "Cater": "",
   "Google*": "",
   "Hours": "COMING SOON",
   "Category": "Coffee & Bubble Tea",
   "Limited or Full Service": ""
 }
 {
   "Name": "I-Tea Newark",
   "Address": "34925 Newark Blvd",
   "Address_complete": "34925 Newark Blvd Fremont, CA",
   "Phone": "(510) 358-2682",
   "Description": "Coffee, Bubble Tea",
   "Website": "www.itea-usa.com",
   "Cater": "",
   "Google*": "4",
   "Hours": "12pm-10 pm Su - M; 12pn-11pm F- Sa",
   "Category": "Coffee & Bubble Tea",
   "Limited or Full Service": ""
 }
 {
   "Name": "Jamba Juice ",
   "Address": "2035 Newpark Mall",
   "Address_complete": "2035 Newpark Mall Fremont, CA",
   "Phone": "5107948336",
   "Description": "Juice",
   "Website": "www.jambajuice.com",
   "Cater": "",
   "Google*": "",
   "Hours": "",
   "Category": "Coffee & Bubble Tea",
   "Limited or Full Service": ""
 }
 {
   "Name": "MandRo Teahouse ",
   "Address": "34956 Newark Blvd",
   "Address_complete": "34956 Newark Blvd Fremont, CA",
   "Phone": "5103323898",
   "Description": "Tea Menu",
   "Website": "www.facebook.com/MandRo-Teahouse",
   "Cater": "",
   "Google*": "4.4",
   "Hours": "",
   "Category": "Coffee & Bubble Tea",
   "Limited or Full Service": ""
 }
 {
   "Name": "S & J Coffee Shop",
   "Address": "5409 Central Ave",
   "Address_complete": "5409 Central Ave Fremont, CA",
   "Phone": "5107931155",
   "Description": "Coffee Shop with Full Meals",
   "Website": "",
   "Cater": "",
   "Google*": "4.4",
   "Hours": "7 am - 2pm",
   "Category": "Coffee & Bubble Tea",
   "Limited or Full Service": ""
 }
 {
   "Name": "Starbucks Coffee",
   "Address": "5877 Jarvis Blvd (in Safeway)",
   "Address_complete": "5877 Jarvis Blvd (in Safeway) Fremont, CA",
   "Phone": "(510) 713-3180",
   "Description": "Coffee ",
   "Website": "www.starbucks.com",
   "Cater": "",
   "Google*": "",
   "Hours": "",
   "Category": "Coffee & Bubble Tea",
   "Limited or Full Service": ""
 }
 {
   "Name": "Starbucks Coffee",
   "Address": "35040 Newark Blvd",
   "Address_complete": "35040 Newark Blvd Fremont, CA",
   "Phone": "(510) 742-1321",
   "Description": "Coffee ",
   "Website": "www.starbucks.com",
   "Cater": "",
   "Google*": "",
   "Hours": "",
   "Category": "Coffee & Bubble Tea",
   "Limited or Full Service": ""
 }
 {
   "Name": "Starbucks Coffee ",
   "Address": "39201 Cedar Blvd",
   "Address_complete": "39201 Cedar Blvd Fremont, CA",
   "Phone": "(510) 602-8273",
   "Description": "Coffee",
   "Website": "www.starbucks.com",
   "Cater": "",
   "Google*": "4.1",
   "Hours": "",
   "Category": "Coffee & Bubble Tea",
   "Limited or Full Service": ""
 }
 {
   "Name": "Starbucks Coffee ",
   "Address": "5741 Stevenson",
   "Address_complete": "5741 Stevenson Fremont, CA",
   "Phone": "(510) 623-8799",
   "Description": "Coffee",
   "Website": "www.starbucks.com",
   "Cater": "",
   "Google*": "",
   "Hours": "",
   "Category": "Coffee & Bubble Tea",
   "Limited or Full Service": ""
 }
 {
   "Name": "Starbucks Coffee ",
   "Address": "7324 Thornton Avenue",
   "Address_complete": "7324 Thornton Avenue Fremont, CA",
   "Phone": "(510) 742-8005",
   "Description": "Coffee ",
   "Website": "www.starbucks.com",
   "Cater": "",
   "Google*": "4.2",
   "Hours": "4am - 8 pm M-F",
   "Category": "Coffee & Bubble Tea",
   "Limited or Full Service": ""
 }
 {
   "Name": "Starbucks Coffee ",
   "Address": "2086 Newpark Mall K005",
   "Address_complete": "2086 Newpark Mall K005 Fremont, CA",
   "Phone": "(510) 794-0975",
   "Description": "Coffee ",
   "Website": "www.starbucks.com",
   "Cater": "",
   "Google*": "",
   "Hours": "",
   "Category": "Coffee & Bubble Tea",
   "Limited or Full Service": ""
 }
 {
   "Name": "Tea Station Inc ",
   "Address": "39115 Cedar Blvd",
   "Address_complete": "39115 Cedar Blvd Fremont, CA",
   "Phone": "5107139588",
   "Description": "Huge MilkTea Menu, Taiwanese Meals",
   "Website": "teastationusa.com/newark/",
   "Cater": "",
   "Google*": "4",
   "Hours": "11:30A - 12A Sa-F; 11:30 a - 1am Sat;  ",
   "Category": "Coffee & Bubble Tea",
   "Limited or Full Service": ""
 }
 {
   "Name": "TeaTop",
   "Address": "39269 Cedar Blvd",
   "Address_complete": "39269 Cedar Blvd Fremont, CA",
   "Phone": "5108942832",
   "Description": "Coffee, Bubble Tea",
   "Website": "www.teatopusa.com/",
   "Cater": "",
   "Google*": "5",
   "Hours": "11;30A-9:30P",
   "Category": "Coffee & Bubble Tea",
   "Limited or Full Service": ""
 }
 {
   "Name": "Vitality Bowl",
   "Address": "35111 Newark Blvd Suite G",
   "Address_complete": "35111 Newark Blvd Suite G Fremont, CA",
   "Phone": "(510) 458-4634",
   "Description": "",
   "Website": "vitalitybowls.com/",
   "Cater": "",
   "Google*": "",
   "Hours": "",
   "Category": "Coffee & Bubble Tea",
   "Limited or Full Service": ""
 }
 {
   "Name": "All Star Burger",
   "Address": "6950 Thornton Av",
   "Address_complete": "6950 Thornton Av Fremont, CA",
   "Phone": "5107933700",
   "Description": "",
   "Website": "",
   "Cater": "",
   "Google*": "",
   "Hours": "6 am - 10pm M-Sat; 7am-10pm Sun",
   "Category": "Fast food",
   "Limited or Full Service": ""
 }
 {
   "Name": "Burger King",
   "Address": "34943 Newark Blvd",
   "Address_complete": "34943 Newark Blvd Fremont, CA",
   "Phone": "5107909108",
   "Description": "",
   "Website": "www.bk.com/",
   "Cater": "",
   "Google*": "",
   "Hours": "",
   "Category": "Fast food",
   "Limited or Full Service": ""
 }
 {
   "Name": "Burger King",
   "Address": "2074 Newpark Mall Dr",
   "Address_complete": "2074 Newpark Mall Dr Fremont, CA",
   "Phone": "5107956068",
   "Description": "",
   "Website": "www.bk.com/",
   "Cater": "",
   "Google*": "",
   "Hours": "",
   "Category": "Fast food",
   "Limited or Full Service": ""
 }
 {
   "Name": "Carls Jr",
   "Address": "39901 Balentine Rd",
   "Address_complete": "39901 Balentine Rd Fremont, CA",
   "Phone": "(510) 656-6022",
   "Description": "",
   "Website": "www.carlsjr.com/",
   "Cater": "",
   "Google*": "",
   "Hours": "",
   "Category": "Fast food",
   "Limited or Full Service": ""
 }
 {
   "Name": "Carls Jr",
   "Address": "5670 Thornton Ave",
   "Address_complete": "5670 Thornton Ave Fremont, CA",
   "Phone": "(510) 797-6260",
   "Description": "",
   "Website": "www.carlsjr.com/",
   "Cater": "",
   "Google*": "",
   "Hours": "",
   "Category": "Fast food",
   "Limited or Full Service": ""
 }
 {
   "Name": "Charley's Philly Steaks",
   "Address": "2086 New Park Mall Space #2082",
   "Address_complete": "2086 New Park Mall Space #2082 Fremont, CA",
   "Phone": "5104948822",
   "Description": "",
   "Website": "charleys.com/",
   "Cater": "",
   "Google*": "",
   "Hours": "",
   "Category": "Fast food",
   "Limited or Full Service": ""
 }
 {
   "Name": "Del Taco",
   "Address": "6160 Jarvis Ave",
   "Address_complete": "6160 Jarvis Ave Fremont, CA",
   "Phone": "(510) 797-0516",
   "Description": "",
   "Website": "deltaco.com/",
   "Cater": "",
   "Google*": "",
   "Hours": "8 am - 12 pm",
   "Category": "Fast food",
   "Limited or Full Service": ""
 }
 {
   "Name": "Hot Dog On A Stick",
   "Address": "2073 Newpark Mall",
   "Address_complete": "2073 Newpark Mall Fremont, CA",
   "Phone": "5107915212",
   "Description": "",
   "Website": "hotdogonastick.com/",
   "Cater": "",
   "Google*": "",
   "Hours": "",
   "Category": "Fast food",
   "Limited or Full Service": ""
 }
 {
   "Name": "Jack in the Box",
   "Address": "39017 Cedar Blvd",
   "Address_complete": "39017 Cedar Blvd Fremont, CA",
   "Phone": "5107923393",
   "Description": "",
   "Website": "locations.jackinthebox.com/us/ca/newark/39017-cedar-blvd",
   "Cater": "",
   "Google*": "",
   "Hours": "",
   "Category": "Fast food",
   "Limited or Full Service": ""
 }
 {
   "Name": "Kentucky Fried Chicken",
   "Address": "5724 B  Thornton Ave",
   "Address_complete": "5724 B  Thornton Ave Fremont, CA",
   "Phone": "5107921617",
   "Description": "",
   "Website": "www.kfc.com/",
   "Cater": "",
   "Google*": "",
   "Hours": "",
   "Category": "Fast food",
   "Limited or Full Service": ""
 }
 {
   "Name": "McDonalds",
   "Address": "35192 Newark Bl",
   "Address_complete": "35192 Newark Bl Fremont, CA",
   "Phone": "5107911389",
   "Description": "",
   "Website": "www.mcdonalds.com",
   "Cater": "",
   "Google*": "",
   "Hours": "",
   "Category": "Fast food",
   "Limited or Full Service": ""
 }
 {
   "Name": "McDonald's",
   "Address": "3000 Newpark Mall Rd",
   "Address_complete": "3000 Newpark Mall Rd Fremont, CA",
   "Phone": "5107459321",
   "Description": "",
   "Website": "www.mcdonalds.com",
   "Cater": "",
   "Google*": "",
   "Hours": "",
   "Category": "Fast food",
   "Limited or Full Service": ""
 }
 {
   "Name": "Panda Express",
   "Address": "5829 Jarvis Ave Ste E",
   "Address_complete": "5829 Jarvis Ave Ste E Fremont, CA",
   "Phone": "5107459844",
   "Description": "",
   "Website": "www.pandaexpress.com/",
   "Cater": "",
   "Google*": "",
   "Hours": "",
   "Category": "Fast food",
   "Limited or Full Service": ""
 }
 {
   "Name": "Popeye's",
   "Address": "35193 Newark Blvd",
   "Address_complete": "35193 Newark Blvd Fremont, CA",
   "Phone": "5107426127",
   "Description": "",
   "Website": "popeyes.com",
   "Cater": "",
   "Google*": "",
   "Hours": "",
   "Category": "Fast food",
   "Limited or Full Service": ""
 }
 {
   "Name": "Sir Fries                                                   ",
   "Address": "2086 Newpark Mall Space 1087",
   "Address_complete": "2086 Newpark Mall Space 1087 Fremont, CA",
   "Phone": "5103718997",
   "Description": "Fries, Fish & Chips, Wings",
   "Website": "sirfriesme.com/",
   "Cater": "",
   "Google*": "",
   "Hours": "",
   "Category": "Fast food",
   "Limited or Full Service": "Limited-Service Restaurants "
 }
 {
   "Name": "Subway",
   "Address": "2075 Newpark Mall",
   "Address_complete": "2075 Newpark Mall Fremont, CA",
   "Phone": "5103205190",
   "Description": "",
   "Website": "www.subway.com",
   "Cater": "",
   "Google*": "",
   "Hours": "",
   "Category": "Fast food",
   "Limited or Full Service": ""
 }
 {
   "Name": "Subway",
   "Address": "5743 Stevenson Blvd",
   "Address_complete": "5743 Stevenson Blvd Fremont, CA",
   "Phone": "5106614241",
   "Description": "",
   "Website": "www.subway.com",
   "Cater": "",
   "Google*": "",
   "Hours": "",
   "Category": "Fast food",
   "Limited or Full Service": ""
 }
 {
   "Name": "Subway",
   "Address": "5552 Thornton Ave",
   "Address_complete": "5552 Thornton Ave Fremont, CA",
   "Phone": "5105651666",
   "Description": "",
   "Website": "www.subway.com",
   "Cater": "",
   "Google*": "",
   "Hours": "",
   "Category": "Fast food",
   "Limited or Full Service": ""
 }
 {
   "Name": "Subway",
   "Address": "6179 Jarvis Ave",
   "Address_complete": "6179 Jarvis Ave Fremont, CA",
   "Phone": "5104940515",
   "Description": "",
   "Website": "www.subway.com",
   "Cater": "",
   "Google*": "",
   "Hours": "",
   "Category": "Fast food",
   "Limited or Full Service": ""
 }
 {
   "Name": "Subway",
   "Address": "5970 Mowry Ave #N",
   "Address_complete": "5970 Mowry Ave #N Fremont, CA",
   "Phone": "5107973831",
   "Description": "",
   "Website": "www.subway.com",
   "Cater": "",
   "Google*": "",
   "Hours": "",
   "Category": "Fast food",
   "Limited or Full Service": ""
 }
 {
   "Name": "Subway",
   "Address": "7388 Thornton Ave",
   "Address_complete": "7388 Thornton Ave Fremont, CA",
   "Phone": "(510) 857-0110",
   "Description": "",
   "Website": "www.subway.com",
   "Cater": "",
   "Google*": "",
   "Hours": "",
   "Category": "Fast food",
   "Limited or Full Service": ""
 }
 {
   "Name": "Taco Bell ",
   "Address": "39199 Cedar Blvd",
   "Address_complete": "39199 Cedar Blvd Fremont, CA",
   "Phone": "(510) 857-0150",
   "Description": "",
   "Website": "www.tacobell.com",
   "Cater": "",
   "Google*": "",
   "Hours": "",
   "Category": "Fast food",
   "Limited or Full Service": ""
 }
 {
   "Name": "Taco Bell ",
   "Address": "5684 Thornton Ave",
   "Address_complete": "5684 Thornton Ave Fremont, CA",
   "Phone": "(510) 574-0642",
   "Description": "",
   "Website": "www.tacobell.com",
   "Cater": "",
   "Google*": "",
   "Hours": "",
   "Category": "Fast food",
   "Limited or Full Service": ""
 }
 {
   "Name": "Togo's",
   "Address": "39986 Cedar Blvd",
   "Address_complete": "39986 Cedar Blvd Fremont, CA",
   "Phone": "(510) 857-0150",
   "Description": "",
   "Website": "www.togos.com",
   "Cater": "",
   "Google*": "",
   "Hours": "",
   "Category": "Fast food",
   "Limited or Full Service": ""
 }
 {
   "Name": "Wendy's",
   "Address": "35229 Newark Bl",
   "Address_complete": "35229 Newark Bl Fremont, CA",
   "Phone": "5107446919",
   "Description": "",
   "Website": "www.wendys.com/",
   "Cater": "",
   "Google*": "",
   "Hours": "",
   "Category": "Fast food",
   "Limited or Full Service": ""
 }
 {
   "Name": "Wing Stop",
   "Address": "35030 Newark Blvd",
   "Address_complete": "35030 Newark Blvd Fremont, CA",
   "Phone": "5107929464",
   "Description": "",
   "Website": "order.wingstop.com/menu/wingstop-804-newark-ca-94560",
   "Cater": "",
   "Google*": "",
   "Hours": "",
   "Category": "Fast food",
   "Limited or Full Service": ""
 }
 {
   "Name": "Mr Pickles",
   "Address": "5849 Jarvis Ave",
   "Address_complete": "5849 Jarvis Ave Fremont, CA",
   "Phone": "5106084775",
   "Description": "",
   "Website": "www.mrpickles.com",
   "Cater": "C",
   "Google*": "",
   "Hours": "n/a",
   "Category": "Fast food",
   "Limited or Full Service": "Limited-Service Restaurants "
 }
 {
   "Name": "The Ultimate Deli LD",
   "Address": "39706 Cedar Blvd",
   "Address_complete": "39706 Cedar Blvd Fremont, CA",
   "Phone": "5102521649",
   "Description": "",
   "Website": "ultimatedelicafe.com",
   "Cater": "",
   "Google*": "",
   "Hours": "4.5",
   "Category": "Fast food",
   "Limited or Full Service": "Limited-Service Restaurants "
 }
 {
   "Name": "99 Ranch Market",
   "Address": "35219 Newark Bl Unit B",
   "Address_complete": "35219 Newark Bl Unit B Fremont, CA",
   "Phone": "5107921899",
   "Description": "Asian Grocery Store",
   "Website": "www.99ranch.com/",
   "Cater": "",
   "Google*": "4",
   "Hours": "9a-9p",
   "Category": "Grocery Markets",
   "Limited or Full Service": ""
 }
 {
   "Name": "Arteaga's Food Center",
   "Address": "3824, 5524 Thornton Ave",
   "Address_complete": "3824, 5524 Thornton Ave Fremont, CA",
   "Phone": "(510) 791-1252",
   "Description": "Authentic Mexican Grocery Store Newark CA · Mexican Restaurant",
   "Website": "arteagas.com/",
   "Cater": "",
   "Google*": "",
   "Hours": "",
   "Category": "Grocery Markets",
   "Limited or Full Service": ""
 }
 {
   "Name": "Bengal Tiger Food",
   "Address": "5438 Central Ave",
   "Address_complete": "5438 Central Ave Fremont, CA",
   "Phone": "5108941431",
   "Description": "East Asian with specialization in Bengali Grocerie. Bangledeshi Restaurant",
   "Website": "bengaltigerfood.business.site/",
   "Cater": "",
   "Google*": "4.2",
   "Hours": "10a-10p Fri & Sat; 8a - 8p Su-Thu",
   "Category": "Grocery Markets",
   "Limited or Full Service": ""
 }
 {
   "Name": "Faisal Market",
   "Address": "5754 Mowry School Rd",
   "Address_complete": "5754 Mowry School Rd Fremont, CA",
   "Phone": "5104400900",
   "Description": "Halal grocery items  w meat & seafood",
   "Website": "faisalmarket.co/",
   "Cater": "",
   "Google*": "4.2",
   "Hours": "10 am-9pm",
   "Category": "Grocery Markets",
   "Limited or Full Service": ""
 }
 {
   "Name": "Food Maxx ",
   "Address": "39966 Cedar Blvd",
   "Address_complete": "39966 Cedar Blvd Fremont, CA",
   "Phone": "5104385968",
   "Description": "Large Chain Discount Market",
   "Website": "locations.foodmaxx.com",
   "Cater": "",
   "Google*": "",
   "Hours": "6 am - 12 am",
   "Category": "Grocery Markets",
   "Limited or Full Service": ""
 }
 {
   "Name": "Grocery Outlet",
   "Address": "36601 Newark Blvd.",
   "Address_complete": "36601 Newark Blvd. Fremont, CA",
   "Phone": "5107915124",
   "Description": "Discount Grocer, brand name groceries, other household items ",
   "Website": "groceryoutlet.com",
   "Cater": "",
   "Google*": "4.1",
   "Hours": "8 am - 9pm",
   "Category": "Grocery Markets",
   "Limited or Full Service": ""
 }
 {
   "Name": "Herat Market",
   "Address": "5694 Thornton Av",
   "Address_complete": "5694 Thornton Av Fremont, CA",
   "Phone": "5107131834",
   "Description": "Halal meats, Afgani Bread, Middle Eastern Groceries",
   "Website": "",
   "Cater": "",
   "Google*": "4.6",
   "Hours": "9am-7pm",
   "Category": "Grocery Markets",
   "Limited or Full Service": ""
 }
 {
   "Name": "La Hacienda Food Center",
   "Address": "36601 Newark Blvd Ste #72",
   "Address_complete": "36601 Newark Blvd Ste #72 Fremont, CA",
   "Phone": "5107972171",
   "Description": "Neighborhood Groceries, Veggies & Fruit",
   "Website": "",
   "Cater": "",
   "Google*": "4.6",
   "Hours": "8am-7pm",
   "Category": "Grocery Markets",
   "Limited or Full Service": ""
 }
 {
   "Name": "Lion Food Center",
   "Address": "39055 Cedar Blvd Suite#168",
   "Address_complete": "39055 Cedar Blvd Suite#168 Fremont, CA",
   "Phone": "5107428179",
   "Description": "Large Asian Grocery, Fresh meat, Live Fish",
   "Website": "www.lionsupermarket.com",
   "Cater": "",
   "Google*": "3.7",
   "Hours": "9am-9pm",
   "Category": "Grocery Markets",
   "Limited or Full Service": ""
 }
 {
   "Name": "Safeway Stores Inc ",
   "Address": "5877 Jarvis Av",
   "Address_complete": "5877 Jarvis Av Fremont, CA",
   "Phone": "(510) 713-3180",
   "Description": "Large Grocery Store with Deli, Florist",
   "Website": "local.safeway.com",
   "Cater": "c",
   "Google*": "3.7",
   "Hours": "6am-1am",
   "Category": "Grocery Markets",
   "Limited or Full Service": ""
 }
 {
   "Name": "Santa Fe Foods",
   "Address": "7356 Thornton Ave",
   "Address_complete": "7356 Thornton Ave Fremont, CA",
   "Phone": "5107931430",
   "Description": "Mercado, Carniceria, Produce & Deli ",
   "Website": "www.santafefoods.org/",
   "Cater": "",
   "Google*": "4",
   "Hours": "6am-9pm",
   "Category": "Grocery Markets",
   "Limited or Full Service": ""
 }
 {
   "Name": "Sprouts Farmers Market                           ",
   "Address": "6399 Jarvis Ave",
   "Address_complete": "6399 Jarvis Ave Fremont, CA",
   "Phone": "5107890361",
   "Description": "Natural & organic groceries, deli, health & beauty products",
   "Website": "www.sprouts.com",
   "Cater": "c",
   "Google*": "4.4",
   "Hours": "7am - 10pm",
   "Category": "Grocery Markets",
   "Limited or Full Service": ""
 }
 {
   "Name": "Trinethra Indian Super Markets",
   "Address": "39207 Cedar Blvd",
   "Address_complete": "39207 Cedar Blvd Fremont, CA",
   "Phone": "(510) 742-8704",
   "Description": "Full line of Indian groceries, produce, frozen foods, beverages",
   "Website": "www.facebook.com/trinethra.newark",
   "Cater": "",
   "Google*": "4",
   "Hours": "9:30a - 10p",
   "Category": "Grocery Markets",
   "Limited or Full Service": ""
 }
 {
   "Name": "Bambu Desserts & Drinks",
   "Address": "6058 Mowry Ave",
   "Address_complete": "6058 Mowry Ave Fremont, CA",
   "Phone": "5108180668",
   "Description": "Beverages, desserts, Vietnamese che",
   "Website": "www.drinkbambu.com",
   "Cater": "",
   "Google*": "",
   "Hours": "",
   "Category": "Ice Cream and Desserts",
   "Limited or Full Service": ""
 }
 {
   "Name": "Baskin Robbins 31 Ice Cream",
   "Address": "34980 Newark Blvd",
   "Address_complete": "34980 Newark Blvd Fremont, CA",
   "Phone": "5107935888",
   "Description": "Ice Cream & Desserts",
   "Website": "www.baskinrobbins.com",
   "Cater": "",
   "Google*": "",
   "Hours": "",
   "Category": "Ice Cream and Desserts",
   "Limited or Full Service": ""
 }
 {
   "Name": "Cold Stone Creamery ",
   "Address": "2036 Newpark Mall",
   "Address_complete": "2036 Newpark Mall Fremont, CA",
   "Phone": "5103205460",
   "Description": "Ice Cream",
   "Website": "www.coldstonecreamery.com",
   "Cater": "",
   "Google*": "",
   "Hours": "",
   "Category": "Ice Cream and Desserts",
   "Limited or Full Service": ""
 }
 {
   "Name": "J&K Desserts & Drinks Inc",
   "Address": "6058 Mowry Ave",
   "Address_complete": "6058 Mowry Ave Fremont, CA",
   "Phone": "",
   "Description": "Ice Cream & Desserts",
   "Website": "",
   "Cater": "",
   "Google*": "",
   "Hours": "",
   "Category": "Ice Cream and Desserts",
   "Limited or Full Service": ""
 }
 {
   "Name": "Beard Papa",
   "Address": "2086 Newpark Mall #1135",
   "Address_complete": "2086 Newpark Mall #1135 Fremont, CA",
   "Phone": "(408) 828-4229",
   "Description": "Cream Puffs",
   "Website": "www.beardpapa.com/",
   "Cater": "",
   "Google*": "",
   "Hours": "",
   "Category": "Ice Cream and Desserts",
   "Limited or Full Service": ""
 }
 {
   "Name": "La Michoacana Fruit & Ice Cream",
   "Address": "35214 Newark Blvd",
   "Address_complete": "35214 Newark Blvd Fremont, CA",
   "Phone": "5103205292",
   "Description": "Ice Cream & Desserts",
   "Website": "",
   "Cater": "",
   "Google*": "",
   "Hours": "",
   "Category": "Ice Cream and Desserts",
   "Limited or Full Service": ""
 }
 {
   "Name": "Orange Tree Frozen Yogurt",
   "Address": "2086 Newpark Mall Space #1060",
   "Address_complete": "2086 Newpark Mall Space #1060 Fremont, CA",
   "Phone": "5107921688",
   "Description": "Ice Cream & Desserts",
   "Website": "www.tfyogurt.com",
   "Cater": "",
   "Google*": "",
   "Hours": "",
   "Category": "Ice Cream and Desserts",
   "Limited or Full Service": ""
 }
 {
   "Name": "La Creperie",
   "Address": "2086 Newpark Mall",
   "Address_complete": "2086 Newpark Mall Fremont, CA",
   "Phone": "(650) 745-0888",
   "Description": "Ice Cream & Desserts",
   "Website": "",
   "Cater": "",
   "Google*": "",
   "Hours": "",
   "Category": "Ice Cream and Desserts",
   "Limited or Full Service": ""
 }
 {
   "Name": "Pa 'Latino",
   "Address": "5696 Thornton Ave",
   "Address_complete": "5696 Thornton Ave Fremont, CA",
   "Phone": "5107131154",
   "Description": "Ice Cream",
   "Website": "",
   "Cater": "",
   "Google*": "",
   "Hours": "",
   "Category": "Ice Cream and Desserts",
   "Limited or Full Service": ""
 }
 {
   "Name": "Storm Crepes ",
   "Address": "39658 Cedar Blvd",
   "Address_complete": "39658 Cedar Blvd Fremont, CA",
   "Phone": "5102495625",
   "Description": "Ice Cream & Desserts",
   "Website": "",
   "Cater": "",
   "Google*": "",
   "Hours": "",
   "Category": "Ice Cream and Desserts",
   "Limited or Full Service": ""
 }
 {
   "Name": "SweetHoney Dessert                        ",
   "Address": "6259 Jarvis Ave",
   "Address_complete": "6259 Jarvis Ave Fremont, CA",
   "Phone": "5109281168",
   "Description": "Ice Cream",
   "Website": "www.sweethoneydessert.com",
   "Cater": "",
   "Google*": "",
   "Hours": "",
   "Category": "Ice Cream and Desserts",
   "Limited or Full Service": ""
 }
 {
   "Name": "Tutti Frutti",
   "Address": "6193 Jarvis Ave",
   "Address_complete": "6193 Jarvis Ave Fremont, CA",
   "Phone": "5103719985",
   "Description": "Ice Cream & Desserts",
   "Website": "www.tuttifruttiglobal.com",
   "Cater": "",
   "Google*": "",
   "Hours": "",
   "Category": "Ice Cream and Desserts",
   "Limited or Full Service": ""
 }
 {
   "Name": "Baba's Dhaba                                                 ",
   "Address": "2077 Newpark Mall",
   "Address_complete": "2077 Newpark Mall Fremont, CA",
   "Phone": "5105651322",
   "Description": "Indian, Pakistani dishes",
   "Website": "",
   "Cater": "",
   "Google*": "4.4",
   "Hours": "10am-9pm",
   "Category": "Indian",
   "Limited or Full Service": ""
 }
 {
   "Name": "Bombay Garden LD",
   "Address": "5995 Mowry Av",
   "Address_complete": "5995 Mowry Av Fremont, CA",
   "Phone": "5107446945",
   "Description": "Indian Lunch Buffet, Parties",
   "Website": "www.bombaygardennewark.us/",
   "Cater": "",
   "Google*": "3.9",
   "Hours": "11:30 - 2:30, 5:30 - 10:30",
   "Category": "Indian",
   "Limited or Full Service": ""
 }
 {
   "Name": "Chandni Restaurant",
   "Address": "5748 Mowry School Rd",
   "Address_complete": "5748 Mowry School Rd Fremont, CA",
   "Phone": "5106681051",
   "Description": "Authentic Pakistani, Indian cuisine & Catering",
   "Website": "www.gochandni.com/",
   "Cater": "C",
   "Google*": "3.8",
   "Hours": "11:30 - 3; 6-10pm",
   "Category": "Indian",
   "Limited or Full Service": ""
 }
 {
   "Name": "Dosa And Curry Cafe",
   "Address": "39742 Cedar Blvd",
   "Address_complete": "39742 Cedar Blvd Fremont, CA",
   "Phone": "5105734056",
   "Description": "Dosas  & More, Buffet Option",
   "Website": "www.dosacurrycafe.com",
   "Cater": "",
   "Google*": "4",
   "Hours": "11-3 weekends; 5:30-10 daily",
   "Category": "Indian",
   "Limited or Full Service": ""
 }
 {
   "Name": "Jay Bharat Restaurant",
   "Address": "39203 Cedar Blvd",
   "Address_complete": "39203 Cedar Blvd Fremont, CA",
   "Phone": "5104949727",
   "Description": "Vegetarian appetizers, curry and dosa",
   "Website": "jaybharat.com/",
   "Cater": "C",
   "Google*": "4.3",
   "Hours": "11:30 -2, 5-9pm",
   "Category": "Indian",
   "Limited or Full Service": ""
 }
 {
   "Name": "Malaikottai",
   "Address": "5988 Newpark Mall Rd",
   "Address_complete": "5988 Newpark Mall Rd Fremont, CA",
   "Phone": "5107972166",
   "Description": "Chettinad regional dishes",
   "Website": "www.malaikottai.com",
   "Cater": "C",
   "Google*": "3.9",
   "Hours": "variable",
   "Category": "Indian",
   "Limited or Full Service": ""
 }
 {
   "Name": "Mumbai Chowk",
   "Address": "35144 Newark Blvd",
   "Address_complete": "35144 Newark Blvd Fremont, CA",
   "Phone": "5106084762",
   "Description": "Bombay Street Food, Fresh Hand-Ground Spices",
   "Website": "",
   "Cater": "",
   "Google*": "3.8",
   "Hours": "11:30a-3, 5:30 - 9:30 & 10p",
   "Category": "Indian",
   "Limited or Full Service": ""
 }
 {
   "Name": "Samraat Curry Hut & Sweets",
   "Address": "6275 Jarvis Ave",
   "Address_complete": "6275 Jarvis Ave Fremont, CA",
   "Phone": "5107457000",
   "Description": "Punjabi style",
   "Website": "www.samraatcurryhut.com/",
   "Cater": "C",
   "Google*": "4.2",
   "Hours": "11:30-3, 5-10pm",
   "Category": "Indian",
   "Limited or Full Service": ""
 }
 {
   "Name": "Biryani Pot",
   "Address": "39277 Cedar Blvd",
   "Address_complete": "39277 Cedar Blvd Fremont, CA",
   "Phone": "5107459870",
   "Description": "Hyderabadi-Indian chain serving biryani, tandoori fare & other traditional dishes",
   "Website": "",
   "Cater": "",
   "Google*": "3.9",
   "Hours": "11 or 11:30-2:30 or 3, 5 - 9:30 or 10",
   "Category": "Indian",
   "Limited or Full Service": ""
 }
 {
   "Name": "Urban Kitchen",
   "Address": "6180 Jarvis, Suite M",
   "Address_complete": "6180 Jarvis, Suite M Fremont, CA",
   "Phone": "5105099100",
   "Description": "Punjabi dishes, homemade Badam, Bengali-syle Kabila Sweets",
   "Website": "",
   "Cater": "C",
   "Google*": "",
   "Hours": "11am-9pm",
   "Category": "Indian",
   "Limited or Full Service": ""
 }
 {
   "Name": "Urban Spice",
   "Address": "36665 Cedar Blvd",
   "Address_complete": "36665 Cedar Blvd Fremont, CA",
   "Phone": "(510) 565-1443",
   "Description": "",
   "Website": "www.urbanspiceca.com/",
   "Cater": "",
   "Google*": "4.7",
   "Hours": "variable",
   "Category": "Indian",
   "Limited or Full Service": ""
 }
 {
   "Name": "Afghan Village Restaurant",
   "Address": "5698 Thornton Ave",
   "Address_complete": "5698 Thornton Ave Fremont, CA",
   "Phone": "(510) 790-0557",
   "Description": "Middle Eastern, Afghan",
   "Website": "",
   "Cater": "",
   "Google*": "4.2",
   "Hours": "11 am - 10pm",
   "Category": "International Wine & bar",
   "Limited or Full Service": ""
 }
 {
   "Name": "Campanella Restaurant",
   "Address": "34903 Newark Blvd",
   "Address_complete": "34903 Newark Blvd Fremont, CA",
   "Phone": "5107949900",
   "Description": "Modern Italian Cuisine",
   "Website": "campanellacuisine.com",
   "Cater": "C",
   "Google*": "4.4",
   "Hours": "11am-1:30, 5-9pm; Closed Sat & Sun",
   "Category": "International Wine & bar",
   "Limited or Full Service": ""
 }
 {
   "Name": "Johnny's Pub",
   "Address": "5810 Jarvis Ave",
   "Address_complete": "5810 Jarvis Ave Fremont, CA",
   "Phone": "5107941672",
   "Description": "UK",
   "Website": "",
   "Cater": "",
   "Google*": "3.8",
   "Hours": "10am-2pm",
   "Category": "International Wine & bar",
   "Limited or Full Service": ""
 }
 {
   "Name": "Kabul Express Kebob",
   "Address": "39698 Cedar Blvd",
   "Address_complete": "39698 Cedar Blvd Fremont, CA",
   "Phone": "(510) 979-9600",
   "Description": "",
   "Website": "",
   "Cater": "",
   "Google*": "4.2",
   "Hours": "11 a - 8:30 or 9 p",
   "Category": "International Wine & bar",
   "Limited or Full Service": ""
 }
 {
   "Name": "O'Sullivans Sports Bar",
   "Address": "5660 Thornton Ave",
   "Address_complete": "5660 Thornton Ave Fremont, CA",
   "Phone": "5108944724",
   "Description": "Irish",
   "Website": "",
   "Cater": "",
   "Google*": "4.3",
   "Hours": "6 am - 12 - 1:30 am",
   "Category": "International Wine & bar",
   "Limited or Full Service": ""
 }
 {
   "Name": "Pupuseria y Taqueria Rosita",
   "Address": "7036 Thornton Ave",
   "Address_complete": "7036 Thornton Ave Fremont, CA",
   "Phone": "(510) 846-9044",
   "Description": "Salvadorian & Mexican: Best Saldorian Papusas",
   "Website": "pupuseria-y-taqueria-rosita.cafe-inspector.com/",
   "Cater": "C",
   "Google*": "4.2",
   "Hours": "10a - 8 p",
   "Category": "International Wine & bar",
   "Limited or Full Service": ""
 }
 {
   "Name": "Swiss Park Inc",
   "Address": "5911 Mowry Av",
   "Address_complete": "5911 Mowry Av Fremont, CA",
   "Phone": "5107936272",
   "Description": "Entrees, bar, entertainment",
   "Website": "swissparknewark.com/",
   "Cater": "",
   "Google*": "4.1",
   "Hours": "2pm-2 am, var",
   "Category": "International Wine & bar",
   "Limited or Full Service": ""
 }
 {
   "Name": "Vinum Wine Bar & Tapas",
   "Address": "2025 Newpark Mall Rd",
   "Address_complete": "2025 Newpark Mall Rd Fremont, CA",
   "Phone": "(510) 285-3585",
   "Description": " Local & Global Wines & Craft Beers, Seasonal Tapas, Upscale, Relaxed",
   "Website": "vinumbar.net/",
   "Cater": "",
   "Google*": "4.6",
   "Hours": "11:30a - 11p Th, F, Sa & 11:30 - 10 Su-W",
   "Category": "International Wine & bar",
   "Limited or Full Service": ""
 }
 {
   "Name": "Saffron Persion Grill",
   "Address": " 5970 Mowry Ave",
   "Address_complete": " 5970 Mowry Ave Fremont, CA",
   "Phone": "(510) 494-2326",
   "Description": "",
   "Website": "",
   "Cater": "",
   "Google*": "4.5",
   "Hours": "10:30 - 10",
   "Category": "International Wine & bar",
   "Limited or Full Service": ""
 }
 {
   "Name": "Gators",
   "Address": "2083 Newpark Mall Rd in Newpark Mall",
   "Address_complete": "2083 Newpark Mall Rd in Newpark Mall Fremont, CA",
   "Phone": "5104949977",
   "Description": "The unique mix of Mediterranean, Turkish, Arabic and Greek homemade cooking",
   "Website": "gatersrestaurant.com/",
   "Cater": "",
   "Google*": "",
   "Hours": "",
   "Category": "International Wine & bar",
   "Limited or Full Service": ""
 }
 {
   "Name": "Bayside Poke",
   "Address": "39664 Cedar Blvd",
   "Address_complete": "39664 Cedar Blvd Fremont, CA",
   "Phone": "(510) 573-3358",
   "Description": "Hawaiian",
   "Website": "www.baysidepoke.com/",
   "Cater": "",
   "Google*": "4.5",
   "Hours": "11am-9pm",
   "Category": "Island",
   "Limited or Full Service": ""
 }
 {
   "Name": "Booniepepper Islander Grill",
   "Address": "6180 Jarvis Ave Suite B",
   "Address_complete": "6180 Jarvis Ave Suite B Fremont, CA",
   "Phone": "5107903839",
   "Description": "Guamanian, charbroil meats",
   "Website": "www.facebook.com/booniepepperIG/",
   "Cater": "Cater",
   "Google*": "4.7",
   "Hours": "11-3, 5-8, var",
   "Category": "Island",
   "Limited or Full Service": ""
 }
 {
   "Name": "Isla Restaurant LD",
   "Address": "5720 Mowry School Rd",
   "Address_complete": "5720 Mowry School Rd Fremont, CA",
   "Phone": "5104451602",
   "Description": "Filipino",
   "Website": "www.myislarestaurant.com/index.html",
   "Cater": "Party Trays",
   "Google*": "4.1",
   "Hours": "11am - 9pm",
   "Category": "Island",
   "Limited or Full Service": ""
 }
 {
   "Name": "Juanita's Polynesian Delights",
   "Address": "36601 Newark Blvd #87",
   "Address_complete": "36601 Newark Blvd #87 Fremont, CA",
   "Phone": "(510) 358-2802",
   "Description": "Polynesian, Filipino, Entrees & Bakery",
   "Website": "www.facebook.com/Juanitas-Polynesian-Delights-459948900690190/",
   "Cater": "",
   "Google*": "4.5",
   "Hours": "11am - 9 pm (7 pm Sun)",
   "Category": "Island",
   "Limited or Full Service": ""
 }
 {
   "Name": "A's Sushi ",
   "Address": "39055 Cedar Blvd #189",
   "Address_complete": "39055 Cedar Blvd #189 Fremont, CA",
   "Phone": "5103582147",
   "Description": "Sushi",
   "Website": "www.assushi.com",
   "Cater": "",
   "Google*": "",
   "Hours": "",
   "Category": "Japanese",
   "Limited or Full Service": ""
 }
 {
   "Name": "Harumi Sushi & Tofu",
   "Address": "5790 Jarvis Ave",
   "Address_complete": "5790 Jarvis Ave Fremont, CA",
   "Phone": "5107972264",
   "Description": "Sushi & Tofu",
   "Website": "harumisushiandtofu.weebly.com",
   "Cater": "",
   "Google*": "",
   "Hours": "",
   "Category": "Japanese",
   "Limited or Full Service": ""
 }
 {
   "Name": "Hibachi ",
   "Address": "2076 Newpark Mall Ste 2076",
   "Address_complete": "2076 Newpark Mall Ste 2076 Fremont, CA",
   "Phone": " (510) 795-1773",
   "Description": "Sushi, Teriyaki & Grilled Fare",
   "Website": "www.hibachisan.com/",
   "Cater": "c",
   "Google*": "",
   "Hours": "",
   "Category": "Japanese",
   "Limited or Full Service": ""
 }
 {
   "Name": "Nijo Castle Japanese Restaurant",
   "Address": "39888 Balentine Dr",
   "Address_complete": "39888 Balentine Dr Fremont, CA",
   "Phone": "5106576456",
   "Description": "Sushi, Teppanyaki, Full Bar",
   "Website": "nijocastle.net/",
   "Cater": "",
   "Google*": "4",
   "Hours": "",
   "Category": "Japanese",
   "Limited or Full Service": ""
 }
 {
   "Name": "O'Sushi ",
   "Address": "34940 Newark Blvd",
   "Address_complete": "34940 Newark Blvd Fremont, CA",
   "Phone": "(510) 792-2888",
   "Description": "Sushi, Bento Boxes",
   "Website": "www.osushinewark.com",
   "Cater": "",
   "Google*": "",
   "Hours": "",
   "Category": "Japanese",
   "Limited or Full Service": ""
 }
 {
   "Name": "Pier 98",
   "Address": "6225 Jarvis Ave",
   "Address_complete": "6225 Jarvis Ave Fremont, CA",
   "Phone": "5107908898",
   "Description": "Sushi, Bento Boxes, Entrees",
   "Website": "www.pier98sushibarandgrill.com/",
   "Cater": "",
   "Google*": "",
   "Hours": "",
   "Category": "Japanese",
   "Limited or Full Service": ""
 }
 {
   "Name": "Sushi Yoshi Restaurant",
   "Address": "39261 Cedar Blvd",
   "Address_complete": "39261 Cedar Blvd Fremont, CA",
   "Phone": "5107973835",
   "Description": "Family-owned sushi house serves up traditional rolls & Japanese dishes in an intimate dining room.",
   "Website": "sites.google.com/site/sushiyoshinewark/",
   "Cater": "",
   "Google*": "",
   "Hours": "",
   "Category": "Japanese",
   "Limited or Full Service": ""
 }
 {
   "Name": "Yugo Ramen                                                ",
   "Address": "2014 Newpark Mall",
   "Address_complete": "2014 Newpark Mall Fremont, CA",
   "Phone": "5107890890",
   "Description": "Ramen & Boba",
   "Website": "yugoramen.com/",
   "Cater": "",
   "Google*": "",
   "Hours": "",
   "Category": "Japanese",
   "Limited or Full Service": ""
 }
 {
   "Name": "Zensen Sushi Express LD",
   "Address": "35233 Newark Blvd Ste A",
   "Address_complete": "35233 Newark Blvd Ste A Fremont, CA",
   "Phone": "5107973500",
   "Description": "Nigiri, Roll, Gunkan",
   "Website": "www.sushiexpress.us",
   "Cater": "",
   "Google*": "",
   "Hours": "",
   "Category": "Japanese",
   "Limited or Full Service": ""
 }
 {
   "Name": "Beque Korean BBQ",
   "Address": "39055 Cedar Blvd Ste #198",
   "Address_complete": "39055 Cedar Blvd Ste #198 Fremont, CA",
   "Phone": "5107970779",
   "Description": "Modern Take on Grilled Specialties",
   "Website": "www.bequekoreangrill.com/",
   "Cater": "",
   "Google*": "3.9",
   "Hours": "11a-3p, 5p-9:30p M, W-Fri; 11-9:30p Sa & Su",
   "Category": "Korean",
   "Limited or Full Service": ""
 }
 {
   "Name": "Bonchon Chicken Newark",
   "Address": "39770 Cedar Blvd",
   "Address_complete": "39770 Cedar Blvd Fremont, CA",
   "Phone": "5105983333",
   "Description": "Signature Fried Chicken and Signature Dishes",
   "Website": "bonchon.com/",
   "Cater": "",
   "Google*": "4.1",
   "Hours": "11a-9p Su, M, W, Th; 11a-10p F & Sa",
   "Category": "Korean",
   "Limited or Full Service": ""
 }
 {
   "Name": "Cafe Hi Seoul",
   "Address": "2086 New Park Mall",
   "Address_complete": "2086 New Park Mall Fremont, CA",
   "Phone": "5107458989",
   "Description": "Comfort Food",
   "Website": "",
   "Cater": "",
   "Google*": "4",
   "Hours": "",
   "Category": "Korean",
   "Limited or Full Service": ""
 }
 {
   "Name": "Cham Sae Bistro                                           ",
   "Address": "6185 Jarvis Ave",
   "Address_complete": "6185 Jarvis Ave Fremont, CA",
   "Phone": "5105740901",
   "Description": "Late night comfort food",
   "Website": "",
   "Cater": "",
   "Google*": "4.1",
   "Hours": "11:30a-2:30p, 5-12am M, T, W Th, Su. 11:30-1am F & Sa.",
   "Category": "Korean",
   "Limited or Full Service": ""
 }
 {
   "Name": "K-Town BBQ",
   "Address": "5890 Mowry School Rd #D-1",
   "Address_complete": "5890 Mowry School Rd #D-1 Fremont, CA",
   "Phone": "5106561001",
   "Description": "",
   "Website": "",
   "Cater": "",
   "Google*": "3.9",
   "Hours": "11am-2:30pm, Su-Th;  til 12 am Fr, Sa, Su",
   "Category": "Korean",
   "Limited or Full Service": ""
 }
 {
   "Name": "Seoul Tofu & Korean BBQ",
   "Address": "6050 Mowry Ave",
   "Address_complete": "6050 Mowry Ave Fremont, CA",
   "Phone": "5107908989",
   "Description": "Seoul Tofu & BBQ",
   "Website": "",
   "Cater": "C",
   "Google*": "3.8",
   "Hours": "11a-2:30p, 5-9:30p M-F; 11a-9:30p Sa & Su",
   "Category": "Korean",
   "Limited or Full Service": ""
 }
 {
   "Name": "Sia Fusion Eatery ",
   "Address": "39263 Cedar Blvd",
   "Address_complete": "39263 Cedar Blvd Fremont, CA",
   "Phone": "5107948852",
   "Description": "American, Asian fusion comfort food",
   "Website": "",
   "Cater": "",
   "Google*": "4.3",
   "Hours": "5pm-2am S-Th; 3pm-2am F & Sa",
   "Category": "Korean",
   "Limited or Full Service": ""
 }
 {
   "Name": "Arteaga's",
   "Address": "5524 Thornton Ave, ",
   "Address_complete": "5524 Thornton Ave,  Fremont, CA",
   "Phone": "(510) 791-1252",
   "Description": "Latino Taqueria, Carniceria & Groceries: Quality & Authentic",
   "Website": "arteagas.com/",
   "Cater": "Cater",
   "Google*": "4.1",
   "Hours": "7a-9p",
   "Category": "Mexican",
   "Limited or Full Service": ""
 }
 {
   "Name": "Cal Eats",
   "Address": "39700 Cedar Blvd",
   "Address_complete": "39700 Cedar Blvd Fremont, CA",
   "Phone": "(510) 573-0753",
   "Description": "Fresh Mexican Grill Eat in / Take Out",
   "Website": "www.caleatsmexicangrill.com",
   "Cater": "C",
   "Google*": "4.6",
   "Hours": "11a-9p; Su 12a-8p",
   "Category": "Mexican",
   "Limited or Full Service": ""
 }
 {
   "Name": "La Cabana",
   "Address": "7136 Rich Av",
   "Address_complete": "7136 Rich Av Fremont, CA",
   "Phone": "5107922600",
   "Description": "Best Mexican Food in Newark Since 1961",
   "Website": "lacabananewark.com/",
   "Cater": "C",
   "Google*": "4",
   "Hours": "10-9 M-TH; 9-10 Fri & Sa; 9-9 Su",
   "Category": "Mexican",
   "Limited or Full Service": ""
 }
 {
   "Name": "Pupuseria y Taqueria Rosita",
   "Address": "7036 Thornton Ave",
   "Address_complete": "7036 Thornton Ave Fremont, CA",
   "Phone": "(510) 846-9044",
   "Description": "Salvadorian & Mexican: Best Saldorian Papusas",
   "Website": "pupuseria-y-taqueria-rosita.cafe-inspector.com/",
   "Cater": "C",
   "Google*": "4.2",
   "Hours": "10a - 8 p",
   "Category": "Mexican",
   "Limited or Full Service": ""
 }
 {
   "Name": "Taqueria",
   "Address": "7673 Thornton Ave",
   "Address_complete": "7673 Thornton Ave Fremont, CA",
   "Phone": "(510) 795-8656",
   "Description": "Traditional dishes",
   "Website": "la-huasteca-taqueria.cafe-inspector.com/",
   "Cater": "C",
   "Google*": "4.3",
   "Hours": "7a-9p, Su 8a-9p",
   "Category": "Mexican",
   "Limited or Full Service": ""
 }
 {
   "Name": "Tortilla Factory",
   "Address": "7015 Thornton Ave",
   "Address_complete": "7015 Thornton Ave Fremont, CA",
   "Phone": "(510) 792-9909",
   "Description": "Traditional meals, fresh tortillas, handmade tacos",
   "Website": "www.mexicotortillafactory.com/",
   "Cater": "C",
   "Google*": "4.5",
   "Hours": "9a - 6p",
   "Category": "Mexican",
   "Limited or Full Service": ""
 }
 {
   "Name": "Taqueria Gallos",
   "Address": "35232 Newark Blvd",
   "Address_complete": "35232 Newark Blvd Fremont, CA",
   "Phone": "(510) 745-7318",
   "Description": "Traditional Dishes, Large Eating Area or Take Out",
   "Website": "",
   "Cater": "C",
   "Google*": "3.9",
   "Hours": "9a - 11p",
   "Category": "Mexican",
   "Limited or Full Service": ""
 }
 {
   "Name": "Taqueria Los Portales",
   "Address": "36782 Cedar Blvd",
   "Address_complete": "36782 Cedar Blvd Fremont, CA",
   "Phone": "(510) 745-7754",
   "Description": "",
   "Website": "",
   "Cater": "",
   "Google*": "",
   "Hours": "",
   "Category": "Mexican",
   "Limited or Full Service": ""
 }
 {
   "Name": "Campanella's Modern Italian Cuisine",
   "Address": "34903 Newark Blvd",
   "Address_complete": "34903 Newark Blvd Fremont, CA",
   "Phone": "(510)794-9900",
   "Description": "Pizza & Full Italian Menu ",
   "Website": "campanellacuisine.com/",
   "Cater": "",
   "Google*": "",
   "Hours": "",
   "Category": "Pizza",
   "Limited or Full Service": ""
 }
 {
   "Name": "Domino's Pizza ",
   "Address": "35248 Newark Blvd",
   "Address_complete": "35248 Newark Blvd Fremont, CA",
   "Phone": "8056509946",
   "Description": "Take Out for pizza & chicken",
   "Website": "www.dominos.com",
   "Cater": "",
   "Google*": "",
   "Hours": "",
   "Category": "Pizza",
   "Limited or Full Service": ""
 }
 {
   "Name": "I Pizza",
   "Address": "39974 Cedar Blvd",
   "Address_complete": "39974 Cedar Blvd Fremont, CA",
   "Phone": "5106680266",
   "Description": "East Coast / N Y Style",
   "Website": "ipizzanewarkca.com",
   "Cater": "",
   "Google*": "4.6",
   "Hours": "11a-9p M-Th, 11a-10p F & Sa, 11a - 8p Su",
   "Category": "Pizza",
   "Limited or Full Service": ""
 }
 {
   "Name": "Little Caesars Pizza",
   "Address": "39237 Cedar Blvd",
   "Address_complete": "39237 Cedar Blvd Fremont, CA",
   "Phone": "5105059575",
   "Description": "Crust tossed from homemade dough, breadsticks, wings ",
   "Website": "order.littlecaesars.com/en-us/stores/11470004/ordering",
   "Cater": "",
   "Google*": "",
   "Hours": "",
   "Category": "Pizza",
   "Limited or Full Service": ""
 }
 {
   "Name": "Mountain Mike's Pizza",
   "Address": "5333 Thornton Ave",
   "Address_complete": "5333 Thornton Ave Fremont, CA",
   "Phone": "5104948177",
   "Description": "Old World Style Pepperoni",
   "Website": "www.mountainmikespizza.com/restaurants/newark.php",
   "Cater": "",
   "Google*": "",
   "Hours": "",
   "Category": "Pizza",
   "Limited or Full Service": ""
 }
 {
   "Name": "Papa John's",
   "Address": "39724 Cedar Blvd",
   "Address_complete": "39724 Cedar Blvd Fremont, CA",
   "Phone": "5106237220",
   "Description": "Take Out",
   "Website": "www.papajohns.com",
   "Cater": "",
   "Google*": "3.1",
   "Hours": "",
   "Category": "Pizza",
   "Limited or Full Service": ""
 }
 {
   "Name": "Pizza Hut ",
   "Address": "6221 Jarvis Ave",
   "Address_complete": "6221 Jarvis Ave Fremont, CA",
   "Phone": "5105050444",
   "Description": "Take Out",
   "Website": "www.pizzahut.com",
   "Cater": "",
   "Google*": "3.1",
   "Hours": "",
   "Category": "Pizza",
   "Limited or Full Service": ""
 }
 {
   "Name": "Round Table Pizza",
   "Address": "5544 Thornton Avenue",
   "Address_complete": "5544 Thornton Avenue Fremont, CA",
   "Phone": "(510) 796-4040",
   "Description": "",
   "Website": "www.roundtablepizza.com/rtp/store.asp?store_num=113",
   "Cater": "x",
   "Google*": "",
   "Hours": "",
   "Category": "Pizza",
   "Limited or Full Service": ""
 }
 {
   "Name": "Chuck E Cheese",
   "Address": "39839 Mowry School Rd",
   "Address_complete": "39839 Mowry School Rd Fremont, CA",
   "Phone": "5104450660",
   "Description": "Kids Entertainment",
   "Website": "www.chuckecheese.com",
   "Cater": "",
   "Google*": "3.8",
   "Hours": "11a-9p, 11a-10p F & Sa",
   "Category": "Pizza & Games for Kids & Families",
   "Limited or Full Service": ""
 }
 {
   "Name": "John's Incredible Pizza Company",
   "Address": "440 Newpark Mall",
   "Address_complete": "440 Newpark Mall Fremont, CA",
   "Phone": "5107561111",
   "Description": "Kids Entertainment",
   "Website": "johnspizza.com/newark",
   "Cater": "",
   "Google*": "3.5",
   "Hours": "11a-11p F & S, 10a-9p M-Th",
   "Category": "Pizza & Games for Kids & Families",
   "Limited or Full Service": ""
 }
 {
   "Name": "Cocurry Thai Cuisine",
   "Address": "6180-A Jarvis Ave",
   "Address_complete": "6180-A Jarvis Ave Fremont, CA",
   "Phone": "5107978911",
   "Description": "Classic Entrees, Samplers & Grilled Specials",
   "Website": "cocurrythai.com/",
   "Cater": "",
   "Google*": "",
   "Hours": "",
   "Category": "Thai",
   "Limited or Full Service": ""
 }
 {
   "Name": "Papaya Thai",
   "Address": "6066 Mowry Ave",
   "Address_complete": "6066 Mowry Ave Fremont, CA",
   "Phone": "(510) 792-1988 ",
   "Description": "Thai & Twist of Isan Flavor",
   "Website": "www.ppythai.com",
   "Cater": "",
   "Google*": "",
   "Hours": "11-3, 5-10",
   "Category": "Thai",
   "Limited or Full Service": ""
 }
 {
   "Name": "Simply Thai",
   "Address": "6295 Jarvis Ave",
   "Address_complete": "6295 Jarvis Ave Fremont, CA",
   "Phone": "5107931698",
   "Description": "Authentic Thai spices, Traditional Cuisine & Full Vegetarian Options",
   "Website": "www.simplythaidining.com",
   "Cater": "",
   "Google*": "4.2",
   "Hours": "11a-2:30p; 5p-10p",
   "Category": "Thai",
   "Limited or Full Service": ""
 }
 {
   "Name": "Chopsticks Pho & Grill LD",
   "Address": "6180 Jarvis Ave Ste T",
   "Address_complete": "6180 Jarvis Ave Ste T Fremont, CA",
   "Phone": "5107939888",
   "Description": "Pho & Grill",
   "Website": "",
   "Cater": "",
   "Google*": "4.3",
   "Hours": "10am-9pm; closed Mon",
   "Category": "Vietnamese",
   "Limited or Full Service": ""
 }
 {
   "Name": "Com Tam Thanh Restaurant",
   "Address": "5733 Stevenson Blvd",
   "Address_complete": "5733 Stevenson Blvd Fremont, CA",
   "Phone": "5102268899",
   "Description": "Pho, Broken Rice & Vermicelli Plates",
   "Website": "comtamthanhvietnamese.com",
   "Cater": "",
   "Google*": "4.1",
   "Hours": "11am-10pm, till 12am Fri & Sat",
   "Category": "Vietnamese",
   "Limited or Full Service": ""
 }
 {
   "Name": "My Tho Vietnamese Restaurant",
   "Address": "39127 Cedar Blvd",
   "Address_complete": "39127 Cedar Blvd Fremont, CA",
   "Phone": "5107945932",
   "Description": "Pho & Seafood Noodle Plate Specialties",
   "Website": "my-tho-vietnamese-restaurant.business.site/",
   "Cater": "",
   "Google*": "5",
   "Hours": "10a - 9p",
   "Category": "Vietnamese",
   "Limited or Full Service": ""
 }
 {
   "Name": "Pho Nguyen Vu",
   "Address": "5729 Jarvis Ave",
   "Address_complete": "5729 Jarvis Ave Fremont, CA",
   "Phone": "5107964300",
   "Description": "Handcrafted Cuisine",
   "Website": "nguyenvurestaurant.com",
   "Cater": "",
   "Google*": "4.3",
   "Hours": "11a-9p",
   "Category": "Vietnamese",
   "Limited or Full Service": ""
 }
 {
   "Name": "Rice And Spoon Vietnamese Cuisine",
   "Address": "7060 Jarvis Ave",
   "Address_complete": "7060 Jarvis Ave Fremont, CA",
   "Phone": "5107423915",
   "Description": "Family recipes from traditional cuisine",
   "Website": "riceandspoon.com",
   "Cater": "",
   "Google*": "4.4",
   "Hours": "10:30 a-9p, Closed Mon 3 - 5p",
   "Category": "Vietnamese",
   "Limited or Full Service": ""
 }
 {
   "Name": "Vung Tau 3",
   "Address": "6092 Mowry Ave",
   "Address_complete": "6092 Mowry Ave Fremont, CA",
   "Phone": "5106675775",
   "Description": "Handmade Sauces & Auhentic Flavors",
   "Website": "www.vungtaurestaurant.com",
   "Cater": "",
   "Google*": "3.8",
   "Hours": "10a-3p, 5-9p; 10-9 weekends",
   "Category": "Vietnamese",
   "Limited or Full Service": ""
 }
